{
  "il_compagno": {
    "name": "IL Compagno",
    "summary": "前菜、ピッツァ、パスタ、ドリンクが付いたランチメニューがあり手軽に本格的なイタリアン料理を楽しむことができる。落ち着いた雰囲気でおしゃれなお店。デートにもおすすめ💛",
    "business_hours": "11:30~14:00(L.O.) 18:00~22:00(L.O.)（火曜日定休日）",
    "tel": "0766-56-1020",
    "address": "射水市太閤山10-9",
    "lat": "36.711186",
    "lon": "137.091582",
    "tag": [
      "イタリアン",
      "ピザ",
      "パスタ",
      "麺"
    ]
  },
  "shoka": {
    "name": "翔叶",
    "summary": "今では珍しい、バスを改装したラーメン屋さん。店内にはハンドルもそのままある。酸辣湯麺はリピーターが多いそう。気さくな店長さんにまた会いに行きたくなるお店。",
    "business_hours": "11:00~14:30(lunch)　17:00~22:00(dinner)(日曜日定休日)",
    "tel": "0766-84-8301",
    "address": "射水市作道728-2",
    "lat": "36.763574",
    "lon": "137.087767",
    "tag": [
      "ラーメン",
      "麺"
    ]
  },
  "hyakumangokuudon": {
    "name": "百万石うどん",
    "summary": "店の外までいい匂いが漂うこのお店。一番人気は天ぷらうどんで、600円とリーズナブルな価格で提供している。この他にも、いみずの丼やととまる丼がある。「ぜひ、海と山の幸を味わってみてください」",
    "business_hours": "11:00~20:00　（不定休）",
    "tel": "0766-52-4334",
    "address": "射水市北野八切1558-5（サンコーの向かい側）",
    "lat": "36.73171",
    "lon": "137.053763",
    "tag": [
      "うどん",
      "麺"
    ]
  },
  "hujiyashokudou": {
    "name": "不二屋食堂",
    "summary": "老若男女が集うアットホームな雰囲気の食堂。安いのにボリューム満点で、学生の味方！「県大生、富大生だけでなく、多くの若者に来てお腹いっぱいになってほしい」人気メニューはかつ丼で、650円。",
    "business_hours": "11:00~20:30 (火曜日定休日）",
    "tel": "0766-56-2557",
    "address": "射水市三ケ伊勢領 2282-2",
    "lat": "36.718882",
    "lon": "137.088555",
    "tag": [
      "丼",
      "ごはん"
    ]
  },
  "gomasaki": {
    "name": "ごま咲",
    "summary": "ごまがふんだんに使われている\"ごまらーめん（７７０円）\"がおすすめです。口いっぱいにごまの風味が広がります。こってりしておらず、隠し味の柚子でさっぱりとしています。ごまは美容に良いので女性の方におすすめです！",
    "business_hours": "11:30~14:30 17:30~20:30（月曜日定休日）(日11:30~15:00)",
    "tel": "0766-55-5739",
    "address": "射水市戸破2596-1",
    "lat": "36.719361",
    "lon": "137.108263",
    "tag": [
      "ラーメン",
      "麺"
    ]
  },
  "gomesusan": {
    "name": "Gomesさん",
    "summary": "ゴメスさんで美味しいのはカリーだけではないんです。子どもからお年寄りまで楽しめるレストランであり、居酒屋です。おすすめはラザニア！店主のゴメスさんの一押しです。日によって味の変わる手づくりラッシーを食後にどうぞ。",
    "business_hours": "11:30~14:30(昼学割10%) 17:30~1:30(AM)（月曜日定休日）",
    "tel": "0766-52-6564",
    "address": "射水市小林229-1",
    "lat": "36.733558",
    "lon": "137.067856",
    "tag": [
      "カレー",
      "お酒"
    ]
  },
  "feliscena": {
    "name": "FELISCENA",
    "summary": "シェフおすすめのメニューは\"〈生パスタ〉紅ズワイガニの海苔クリームパスタ\"です。パスタはもちもちしていて、ソースとよく絡んでとても美味しいです。記念日や誕生日にはデザートでサプライズすることもできます。事前に予約をしておくのがよいかもしれません。",
    "business_hours": "11:00~22:00(水曜日定休日)（祝祭日は営業）",
    "tel": "0766-84-3377",
    "address": "射水市海王町8",
    "lat": "36.781073",
    "lon": "137.109011",
    "tag": [
      "イタリアン",
      "パスタ"
    ]
  },
  "tsuganoki": {
    "name": "栂の木",
    "summary": "お店の外観、内装ともにレトロな雰囲気です。数多くのメニューがありますが、その中でも特におすすめなのは\"栂の木ホットサンドセット\"です。卵と野菜のバランスが絶妙！一部、菜園で作っている野菜を使用しています。コーヒーカップは全部、店主さんが集めたもので好きなカップを選んで飲むことができます。",
    "business_hours": "7:30~19:30(日曜日定休日)",
    "tel": "0766-56-3293",
    "address": "射水市太閤山1丁目7-8",
    "lat": "36.708267",
    "lon": "137.094143",
    "tag": [
      "カフェ",
      "軽食"
    ]
  },
  "cafejun": {
    "name": "カフェ旬",
    "summary": "きれいな店内で雑誌や本などがあり、落ち着いた雰囲気のカフェです。日替わりランチ700円とお手頃価格で、おすすめは角煮丼900円で1日10食限定です！また、チョコレートケーキや芋まんじゅうといったデザートもあります。",
    "business_hours": "10:00~18:00(予約で夜も延長)（月曜日定休日）",
    "tel": "0766-50-8528",
    "address": "射水市本町2-9-5",
    "lat": "36.782266",
    "lon": "137.080159",
    "tag": [
      "カフェ",
      "丼"
    ]
  },
  "houshouwakasaya": {
    "name": "放生若狭屋",
    "summary": "店主おすすめの品は、かりんとうまんじゅうです。味はこしあんや抹茶など5種類。他にも、白エビを使ったせんべいや多種多様なケーキががあり、どれも取材者のおすすめ！ぜひ一度、訪れてみてほしい。",
    "business_hours": "9:00~20:00(不定休)",
    "tel": "9:00~20:00(不定休)",
    "address": "射水市善光寺16-5",
    "lat": "36.776034",
    "lon": "137.079465",
    "tag": [
      "和菓子",
      "スイーツ",
      "ケーキ"
    ]
  },
  "newmonburan": {
    "name": "ニューモンブラン",
    "summary": "取材者のおすすめはアップルパイ(240円)とりんごと杏子ジャムのケーキ(160円)。安価でこだわりのケーキを楽しめるお店。フルーツなどのトッピングはふんだんに使われていて、どれもおすすめ",
    "business_hours": "9:00~21:00(水曜日定休日)（祭日は営業）",
    "tel": "0766-56-6347",
    "address": "射水市戸破元町1658-3",
    "lat": "36.714428",
    "lon": "137.096513",
    "tag": [
      "ケーキ",
      "洋菓子",
      "スイーツ"
    ]
  },
  "nakagawamotiten": {
    "name": "中川餅店",
    "summary": "商品は単価60円~と、とてもお手頃な価格です。手土産やおやつにいかがでしょうか?ぜひお店のこだわり抜いた味を堪能してほしいです。おいしくて何個でも食べられてしまいます。",
    "business_hours": "営業時間: 8:00~19:00(水曜日定休日)",
    "tel": "0120-43-7060",
    "address": "射水市立町2-22",
    "lat": "36.779795",
    "lon": "137.088078",
    "tag": [
      "和菓子",
      "スイーツ"
    ]
  }
}